{"version": 0.6, "generator": "Overpass API 0.7.62.11 87bfad18", "osm3s": {"timestamp_osm_base": "2026-06-08T20:07:57Z", "copyright": "The data included in this document is from www.openstreetmap.org. The data is made available under ODbL."}, "elements": [{"type": "node", "id": 2286389019, "lat": 29.1887894, "lon": 30.3609341, "tags": {"name": "\u0627\u0644\u0646\u0647\u062f\u064a\u0646", "name:ar": "\u0639\u0644\u0645 \u0627\u0644\u0646\u0647\u062f\u064a\u0646", "name:en": "Alam Al Nahdein", "natural": "peak", "tourism": "attraction"}}, {"type": "node", "id": 2294132433, "lat": 29.144113, "lon": 30.307587, "tags": {"name": "\u0627\u064a\u0643\u0648\u0644\u0648\u062f\u062c \u0632\u0648\u0627\u0631\u0629", "name:ar": "\u0627\u064a\u0643\u0648\u0644\u0648\u062f\u062c \u0632\u0648\u0627\u0631\u0629", "name:en": "Ecolodge Zowarah", "operator": "Hany Zaky", "phone": "0100 1666979", "tourism": "guest_house", "website": "www.facebook.com/rahhalaexpeditions"}}, {"type": "node", "id": 2969699275, "lat": 29.1484405, "lon": 30.4219873, "tags": {"tourism": "picnic_site"}}, {"type": "node", "id": 3450984138, "lat": 29.1803327, "lon": 30.3506529, "tags": {"name": "Lake Rayan from Mt Medawara", "tourism": "viewpoint"}}, {"type": "node", "id": 3451049640, "lat": 29.1715509, "lon": 30.3500423, "tags": {"name": "Magic Lake from Mt Medawara", "tourism": "viewpoint"}}, {"type": "node", "id": 3451053817, "lat": 28.9853081, "lon": 30.4061646, "tags": {"name": "Observation of a narrow Sandsea", "place": "locality", "tourism": "viewpoint"}}, {"type": "node", "id": 3451074290, "lat": 28.986354, "lon": 30.408232, "tags": {"tourism": "picnic_site"}}, {"type": "node", "id": 3472455057, "lat": 29.1545377, "lon": 30.4169, "tags": {"name": "\u0627\u0644\u0634\u0627\u0637\u0626 \u0627\u0644\u0645\u0633\u062d\u0648\u0631", "name:ar": "\u0627\u0644\u0634\u0627\u0637\u0626 \u0627\u0644\u0645\u0633\u062d\u0648\u0631", "name:en": "Magic Beach", "natural": "beach", "tourism": "picnic_site"}}]}