{"version": 0.6, "generator": "Overpass API 0.7.62.11 87bfad18", "osm3s": {"timestamp_osm_base": "2026-05-31T10:56:30Z", "copyright": "The data included in this document is from www.openstreetmap.org. The data is made available under ODbL."}, "elements": [{"type": "node", "id": 3118641496, "lat": 31.040808, "lon": 31.3641445, "tags": {"amenity": "restaurant", "name": "\u0643\u0634\u0631\u0649 \u0627\u0644\u062d\u062c\u0627\u0632", "name:ar": "\u0643\u0634\u0631\u0649 \u0627\u0644\u062d\u062c\u0627\u0632"}}, {"type": "node", "id": 3118641497, "lat": 31.0408239, "lon": 31.3651274, "tags": {"amenity": "restaurant", "name": "\u0645\u0637\u0627\u0639\u0645 \u0627\u0644\u0628\u063a\u0644 \u0627\u0644\u0643\u0628\u0631\u0649", "name:ar": "\u0645\u0637\u0627\u0639\u0645 \u0627\u0644\u0628\u063a\u0644 \u0627\u0644\u0643\u0628\u0631\u0649", "name:en": "El Baghl El Kobra Restaurants", "phone": "+20 50 2218035"}}, {"type": "node", "id": 5550242260, "lat": 31.0378736, "lon": 31.3616146, "tags": {"addr:city": "\u0627\u0644\u0645\u0646\u0635\u0648\u0631\u0629", "amenity": "restaurant", "name": "\u0643\u0627\u062a\u0634\u0628", "name:ar": "\u0643\u0627\u062a\u0634\u0628", "name:en": "Katechub"}}, {"type": "node", "id": 5550242261, "lat": 31.0376075, "lon": 31.3622252, "tags": {"addr:city": "\u0627\u0644\u0645\u0646\u0635\u0648\u0631\u0629", "amenity": "restaurant", "name": "\u0627\u0644\u0645\u0627\u0644\u0643\u064a", "name:ar": "\u0627\u0644\u0645\u0627\u0644\u0643\u064a", "name:en": "Al Malky"}}, {"type": "node", "id": 5550242262, "lat": 31.0375386, "lon": 31.3619922, "tags": {"addr:city": "\u0627\u0644\u0645\u0646\u0635\u0648\u0631\u0629", "amenity": "restaurant", "name": "\u0623\u0647\u0644 \u0627\u0644\u0634\u0627\u0645", "name:ar": "\u0623\u0647\u0644 \u0627\u0644\u0634\u0627\u0645", "name:en": "Ahl Al Sham"}}, {"type": "node", "id": 5550242264, "lat": 31.0376127, "lon": 31.3613307, "tags": {"amenity": "restaurant", "name": "Lava"}}, {"type": "node", "id": 5550242265, "lat": 31.0376865, "lon": 31.3614969, "tags": {"amenity": "restaurant", "name": "Chicks"}}]}