{"version": 0.6, "generator": "Overpass API 0.7.62.11 87bfad18", "osm3s": {"timestamp_osm_base": "2026-06-01T12:03:16Z", "copyright": "The data included in this document is from www.openstreetmap.org. The data is made available under ODbL."}, "elements": [{"type": "node", "id": 5208082055, "lat": 31.0079189, "lon": 29.7363717}, {"type": "node", "id": 5208082056, "lat": 31.0080296, "lon": 29.7365858}, {"type": "node", "id": 5208082057, "lat": 31.0078385, "lon": 29.7366973}, {"type": "node", "id": 5208082058, "lat": 31.0077551, "lon": 29.7364938}, {"type": "node", "id": 6879159487, "lat": 31.0607749, "lon": 29.6828677, "tags": {"amenity": "restaurant", "name": "\u0639\u064a\u0634 \u0648\u0645\u0644\u062d", "name:ar": "\u0639\u064a\u0634 \u0648\u0645\u0644\u062d", "name:en": "Bread and Salt", "phone": "01006023277"}}, {"type": "node", "id": 6960690787, "lat": 30.9770307, "lon": 29.6600104, "tags": {"amenity": "restaurant", "name": "\u0648\u0627\u062d\u0629 \u062e\u0637\u0627\u0628 \u0644\u0644\u0645\u0623\u0643\u0648\u0644\u0627\u062a \u0627\u0644\u0628\u062f\u0648\u064a\u0629.", "name:ar": "\u0648\u0627\u062d\u0629 \u062e\u0637\u0627\u0628 \u0644\u0644\u0645\u0623\u0643\u0648\u0644\u0627\u062a \u0627\u0644\u0628\u062f\u0648\u064a\u0629."}}, {"type": "node", "id": 7020346612, "lat": 30.9775772, "lon": 29.6612256, "tags": {"amenity": "restaurant", "atm": "yes", "name": "Wahet Khtab"}}, {"type": "node", "id": 7027812319, "lat": 31.0233226, "lon": 29.7716611, "tags": {"amenity": "restaurant", "name": "Silver Spoons"}}, {"type": "node", "id": 8072966917, "lat": 30.9804905, "lon": 29.6718464, "tags": {"amenity": "restaurant", "name": "\u0642\u0631\u064a\u0629 \u0627\u0644\u062a\u0645\u0633\u0627\u062d", "name:ar": "\u0642\u0631\u064a\u0629 \u0627\u0644\u062a\u0645\u0633\u0627\u062d"}}, {"type": "node", "id": 8951665021, "lat": 31.0914662, "lon": 29.7580136, "tags": {"amenity": "restaurant", "name": "\u062d\u0644\u0642\u0629 \u0627\u0644\u0633\u0645\u0643 \u0627\u0633\u0643\u0646\u062f\u0631\u064a\u0647", "name:ar": "\u062d\u0644\u0642\u0629 \u0627\u0644\u0633\u0645\u0643 \u0627\u0633\u0643\u0646\u062f\u0631\u064a\u0647", "name:en": "Halaket Al Samak Alexandria"}}, {"type": "way", "id": 537937190, "nodes": [5208082055, 5208082056, 5208082057, 5208082058, 5208082055], "tags": {"addr:city": "\u0627\u0644\u0627\u0633\u0643\u0646\u062f\u0631\u064a\u0629", "amenity": "restaurant", "building": "yes", "building:levels": "2", "name": "\u0645\u0637\u0639\u0645 \u0635\u0642\u0631 \u0627\u0644\u0639\u0631\u0628", "name:ar": "\u0645\u0637\u0639\u0645 \u0635\u0642\u0631 \u0627\u0644\u0639\u0631\u0628"}}]}